City_ID,City,Lat,Lng,Max Temp,Humidity,Cloudiness,Wind Speed,Country,Date
0,natal,-5.795,-35.2094,27.12,78,0,2.06,BR,1683855581
1,hadibu,12.65,54.0333,28.2,74,100,1.08,YE,1683855584
2,sirathu,25.65,81.3167,31.61,11,0,2.69,IN,1683855584
3,isafjordur,66.0755,-23.124,6.69,94,100,1.85,IS,1683855584
4,yuzhno-kurilsk,44.0306,145.8556,7.24,66,10,3.51,RU,1683855584
5,fuglafjordur,62.244,-6.814,8.26,82,50,1.76,FO,1683855584
6,gua musang,4.8823,101.9644,30.08,64,40,0.23,MY,1683855584
7,port mathurin,-19.6833,63.4167,25.54,76,77,9.71,MU,1683855585
8,edinburgh of the seven seas,-37.0676,-12.3116,17.13,85,90,12.33,SH,1683855585
9,adamstown,-25.066,-130.1015,22.05,60,100,8.32,PN,1683855585
10,trairi,-3.2778,-39.2689,24.9,85,51,1.67,BR,1683855517
11,nishifukuma,33.7667,130.4667,26.27,57,100,1.56,JP,1683855585
12,ribeira grande,38.5167,-28.7,15.43,86,45,2.68,PT,1683855585
13,albany,42.6001,-73.9662,17.71,62,100,2.44,US,1683855312
14,regina,50.4501,-104.6178,15.06,64,100,7.2,CA,1683855548
15,waitangi,-43.9535,-176.5597,10.46,75,51,1.34,NZ,1683855586
16,camana,-16.6228,-72.7111,19.75,81,53,2.62,PE,1683855586
17,puerto natales,-51.7236,-72.4875,7.8,84,98,3.73,CL,1683855586
18,labrador city,52.9463,-66.9114,2.95,70,0,1.03,CA,1683855338
19,shanhaiguan,39.9988,119.7564,22.92,38,5,5.56,CN,1683855587
20,punta arenas,-53.15,-70.9167,8.06,76,0,6.17,CL,1683855438
21,bethel,41.3712,-73.414,19.46,61,0,0.0,US,1683855588
22,st. john's,47.5649,-52.7093,4.66,60,20,8.75,CA,1683855479
23,qaqortoq,60.7167,-46.0333,1.55,89,100,0.83,GL,1683855588
24,souillac,-20.5167,57.5167,24.21,83,40,5.66,MU,1683855588
25,kudahuvadhoo,2.6708,72.8944,27.79,79,100,7.76,MV,1683855588
26,port-aux-francais,-49.35,70.2167,8.27,90,100,20.71,TF,1683855588
27,kaesong,37.9708,126.5544,18.93,41,100,2.19,KP,1683855589
28,holualoa,19.6228,-155.9522,25.91,85,40,5.14,US,1683855589
29,anloga,5.7947,0.8973,28.75,80,40,3.78,GH,1683855589
30,grytviken,-54.2811,-36.5092,-4.49,66,1,2.07,GS,1683855589
31,vorgashor,67.5833,63.95,-9.72,92,27,2.47,RU,1683855589
32,konarka,19.9,86.1167,29.22,75,100,2.93,IN,1683855589
33,rongelap,11.1635,166.8941,27.59,80,100,7.8,MH,1683855590
34,porto franco,-6.3383,-47.3992,24.71,75,94,0.7,BR,1683855289
35,ushuaia,-54.8,-68.3,9.81,62,75,4.63,AR,1683855590
36,ilulissat,69.2167,-51.1,-2.99,86,100,7.2,GL,1683855590
37,bilibino,68.0546,166.4372,1.65,92,100,1.8,RU,1683855590
38,whitehorse,60.7161,-135.0538,15.43,30,75,7.2,CA,1683855467
39,new norfolk,-42.7826,147.0587,15.4,62,56,0.45,AU,1683855076
40,petropavlovsk-kamchatsky,53.0452,158.6483,6.33,61,75,6.0,RU,1683855591
41,iqaluit,63.7506,-68.5145,-5.15,86,20,3.6,CA,1683855591
42,tchintabaraden,15.8969,5.7985,30.32,37,28,5.35,NE,1683855591
43,west island,-12.1568,96.8225,28.99,79,40,7.2,CC,1683855591
44,yellowknife,62.456,-114.3525,19.29,30,75,3.6,CA,1683855393
45,saipan,15.1355,145.701,29.25,100,13,5.36,MP,1683855591
46,isangel,-19.55,169.2667,27.06,83,100,2.06,VU,1683855467
47,asekeyevo,53.5742,52.7972,10.64,76,100,2.84,RU,1683855592
48,tiksi,71.6872,128.8694,-10.08,80,85,7.42,RU,1683855592
49,kampung sungai ara,5.327,100.2735,30.95,74,20,0.0,MY,1683855592
50,aasiaat,68.7098,-52.8699,-3.31,93,100,3.8,GL,1683855592
51,talnakh,69.4865,88.3972,-14.33,84,59,5.12,RU,1683855592
52,port lincoln,-34.7333,135.8667,16.4,57,17,4.66,AU,1683855592
53,haiku-pauwela,20.9219,-156.3051,28.01,48,40,8.75,US,1683855593
54,sitka,57.0531,-135.33,11.94,54,100,5.14,US,1683855593
55,ust-nera,64.5667,143.2,5.56,55,100,1.01,RU,1683855593
56,mangrol,21.1167,70.1167,29.66,61,1,5.0,IN,1683855593
57,jamestown,42.097,-79.2353,18.8,39,0,2.06,US,1683855511
58,kemri,28.8167,79.2167,28.76,17,1,3.91,IN,1683855593
59,papatowai,-46.5619,169.4708,11.34,90,100,4.21,NZ,1683855594
60,blackmans bay,-43.0167,147.3167,15.29,71,61,1.43,AU,1683855594
61,invercargill,-46.4,168.35,12.02,81,96,4.07,NZ,1683855325
62,kolonia,50.9333,6.95,13.49,93,20,2.06,DE,1683855555
63,atafu village,-8.5421,-172.5159,28.9,77,66,5.64,TK,1683855594
64,hawaiian paradise park,19.5933,-154.9731,25.73,76,100,3.6,US,1683855594
65,turpan,42.9333,89.1667,29.48,9,100,1.44,CN,1683855594
66,kosh-agach,50.0,88.6667,9.36,46,71,0.62,RU,1683855595
67,badger,64.8,-147.5333,16.14,39,75,2.57,US,1683855595
68,vila franca do campo,37.7167,-25.4333,17.23,89,100,0.81,PT,1683855595
69,pisco,-13.7,-76.2167,20.03,83,100,4.12,PE,1683855595
70,kingston,17.997,-76.7936,28.53,80,20,8.23,JM,1683855541
71,oyama,36.3,139.8,20.75,35,34,2.07,JP,1683855595
72,lompoc,34.6391,-120.4579,19.88,80,75,9.26,US,1683855596
73,lan sak,15.4529,99.5761,27.11,79,100,0.1,TH,1683855596
74,crane,31.3974,-102.3501,26.58,9,1,3.73,US,1683855596
75,tofol,5.3248,163.0078,30.88,74,75,3.6,FM,1683855596
76,puerto ayora,-0.7393,-90.3518,26.42,97,74,3.15,EC,1683855596
77,stanley,54.868,-1.6985,9.04,97,100,3.09,GB,1683855596
78,ust'-ilimsk,58.0006,102.6619,10.56,43,98,3.78,RU,1683855596
79,culebra,18.303,-65.301,27.02,70,59,6.66,PR,1683855597
80,aykhal,66.0,111.5,0.27,99,100,8.25,RU,1683855059
81,laguna,38.421,-121.4238,25.99,44,0,3.09,US,1683855597
82,oriximina,-1.7656,-55.8661,23.66,97,100,0.63,BR,1683855597
83,genc,38.7507,40.5603,15.4,56,100,0.68,TR,1683855597
84,cold lake,54.4502,-110.2017,14.97,67,75,7.2,CA,1683855597
85,waterboro,43.5356,-70.7151,16.9,55,0,1.54,US,1683855597
86,batticaloa,7.7102,81.6924,27.88,78,100,2.4,LK,1683855598
87,manokwari,-0.8667,134.0833,29.05,71,99,4.28,ID,1683855022
88,kovalam,8.3667,76.9967,28.05,78,40,1.03,IN,1683855598
89,avarua,-21.2078,-159.775,26.03,78,100,9.77,CK,1683855598
90,bandarbeyla,9.4942,50.8122,26.97,87,90,5.4,SO,1683855598
91,chulakkurgan,43.765,69.1814,24.93,27,100,3.13,KZ,1683855599
92,celestun,20.8667,-90.4,28.82,72,13,4.33,MX,1683855599
93,anadyr,64.75,177.4833,3.28,75,0,3.0,RU,1683855599
94,singkawang,0.9,109.0,30.85,64,55,0.42,ID,1683855599
95,pahrump,36.2083,-115.9839,28.58,13,0,1.79,US,1683855502
96,karratha,-20.7377,116.8463,27.27,19,0,8.46,AU,1683855600
97,margaret river,-33.95,115.0667,15.54,58,80,5.34,AU,1683855600
98,ballina,-28.8667,153.5667,19.88,92,13,2.21,AU,1683855600
99,nova sintra,14.8667,-24.7167,20.16,80,6,6.39,CV,1683855601
100,gadzhiyevo,69.2551,33.3362,2.7,100,100,2.77,RU,1683855601
101,happy valley-goose bay,53.3168,-60.3315,3.17,52,20,3.6,CA,1683855601
102,fada,9.5667,8.3,23.01,75,98,1.22,NG,1683855601
103,tobelo,1.7284,128.0095,29.21,71,100,0.26,ID,1683855602
104,kourou,5.1552,-52.6478,23.03,92,98,2.4,GF,1683855602
105,college,64.8569,-147.8028,16.18,40,75,2.57,US,1683855603
106,bayanaul,50.7889,75.6956,11.59,60,46,5.12,KZ,1683855604
107,kamenka,51.3223,42.7678,7.33,97,100,5.03,RU,1683855604
108,tolanaro,-25.0319,46.9987,23.04,88,75,3.6,MG,1683855130
109,cee,42.9547,-9.188,12.12,85,70,5.21,ES,1683855605
110,laurentides,46.4334,-74.9826,15.95,67,100,1.87,CA,1683855605
111,puerto lempira,15.2667,-83.7667,26.88,81,100,4.72,HN,1683855605
112,hilo,19.7297,-155.09,28.49,78,100,3.6,US,1683855505
113,chonchi,-42.6128,-73.8092,12.84,97,100,1.36,CL,1683855606
114,ta`u,-14.2336,-169.5144,27.95,73,17,4.04,AS,1683855606
115,dzilam gonzalez,21.2833,-88.9333,29.62,55,85,5.32,MX,1683855607
116,east london,-33.0153,27.9116,18.34,82,100,5.98,ZA,1683855607
117,punta del este,-34.9667,-54.95,15.49,76,75,2.24,UY,1683855318
118,kitimat,54.0524,-128.6534,19.21,57,100,0.45,CA,1683855608
119,boda,4.3189,17.4695,21.46,92,36,0.4,CF,1683855608
120,ariquemes,-9.9133,-63.0408,22.36,89,99,0.73,BR,1683855351
121,lihue,21.9789,-159.3672,26.77,68,20,5.14,US,1683855589
122,naxos,37.1056,25.3764,16.28,77,100,8.05,GR,1683855608
123,port saint john's,-31.6229,29.5448,20.44,75,100,4.75,ZA,1683855139
124,asau,46.4333,26.4,7.51,88,68,0.43,RO,1683855609
125,chernyshevskiy,63.0128,112.4714,2.81,71,100,4.48,RU,1683855609
126,nar'yan-mar,67.6713,53.087,0.5,98,100,3.22,RU,1683855610
127,minas de marcona,-15.2119,-75.1103,14.37,86,44,3.72,PE,1683855610
128,alice springs,-23.7,133.8833,17.75,32,0,4.63,AU,1683855610
129,lomonosov,59.9061,29.7725,7.95,78,11,3.51,RU,1683855611
130,dudinka,69.4058,86.1778,-14.1,94,80,6.37,RU,1683855611
131,port alfred,-33.5906,26.891,16.21,97,100,0.89,ZA,1683855611
132,general acha,-37.377,-64.6043,13.12,61,96,5.33,AR,1683855611
133,utrik,11.2278,169.8474,27.39,79,73,7.66,MH,1683855612
134,bandon,51.7469,-8.7425,10.77,96,0,4.97,IE,1683855612
135,vilyuysk,63.7553,121.6247,5.71,39,2,2.34,RU,1683855612
136,yaren,-0.5472,166.916,28.77,76,100,5.06,NR,1683855612
137,poteau,35.0537,-94.6236,26.86,73,40,2.57,US,1683855613
138,thompson,55.7435,-97.8558,18.09,39,40,2.57,CA,1683855613
139,lebu,-37.6167,-73.65,12.45,94,100,2.1,CL,1683855613
140,giyani,-23.3025,30.7187,17.97,55,0,2.51,ZA,1683855614
141,konjic,43.6519,17.9614,12.47,98,100,1.0,BA,1683855614
142,geraldton,-28.7667,114.6,18.23,45,40,9.26,AU,1683855614
143,mel'nikovo,56.5558,84.085,2.64,94,100,3.96,RU,1683855615
144,wailua homesteads,22.0669,-159.378,26.44,68,20,5.14,US,1683855615
145,georgetown,5.4112,100.3354,30.96,79,20,2.06,MY,1683855416
146,ghat,24.9647,10.1728,22.86,23,100,2.73,LY,1683855615
147,labytnangi,66.6572,66.4183,-8.93,95,99,1.79,RU,1683855615
148,susuman,62.7833,148.1667,4.89,70,100,1.4,RU,1683855616
149,sayaxche,16.5167,-90.1667,24.34,85,100,2.39,GT,1683855616
150,sovetskiy,61.3614,63.5842,4.11,48,25,3.05,RU,1683855616
151,praia da vitoria,38.7333,-27.0667,17.14,94,75,3.58,PT,1683855617
152,iskateley,67.6803,53.1512,0.45,97,100,3.29,RU,1683855617
153,guerrero negro,27.9769,-114.0611,15.31,76,64,9.86,MX,1683855452
154,fisterra,42.9049,-9.2629,12.08,81,50,6.72,ES,1683855618
155,katsuren-haebaru,26.3369,127.8719,24.43,60,40,4.63,JP,1683855618
156,cannonvale,-20.2833,148.7,21.66,66,20,8.51,AU,1683855618
157,sinabang,2.4803,96.3801,28.76,82,25,3.9,ID,1683855619
158,wau,7.7029,27.9953,24.89,68,19,1.9,SS,1683855619
159,havelock,34.8791,-76.9013,21.97,77,0,2.06,US,1683855619
160,manicore,-5.8092,-61.3003,22.58,99,100,0.53,BR,1683855620
161,coihueco,-36.6167,-71.8333,13.74,56,25,1.93,CL,1683855620
162,fort bragg,35.139,-79.006,23.32,65,0,3.6,US,1683855106
163,hermanus,-34.4187,19.2345,8.78,77,88,6.94,ZA,1683855620
164,vilyuchinsk,52.9306,158.4028,7.15,86,100,0.91,RU,1683855620
165,ad dabbah,18.05,30.95,30.59,16,21,1.78,SD,1683855621
166,awjilah,29.1081,21.2869,20.53,46,0,3.01,LY,1683855621
167,hamilton,39.1834,-84.5333,22.7,67,0,3.09,US,1683855140
168,kone,-21.0595,164.8658,25.65,60,100,3.28,NC,1683855622
169,kimbe,-5.5502,150.1429,31.1,66,71,2.45,PG,1683855622
170,khandyga,62.6667,135.6,3.89,71,100,1.58,RU,1683855622
171,muisne,0.6,-80.0333,26.57,88,25,0.7,EC,1683855622
172,uturoa,-16.7333,-151.4333,25.56,85,100,6.67,PF,1683855623
173,fale old settlement,-9.3852,-171.2468,28.77,76,29,6.07,TK,1683855623
174,guapiacu,-20.795,-49.2203,22.16,73,0,0.0,BR,1683855623
175,port elizabeth,-33.918,25.5701,16.17,93,20,9.26,ZA,1683855624
176,midvagur,62.0511,-7.1939,8.46,93,75,0.51,FO,1683855624
177,arawa,-6.2132,155.5367,31.3,65,95,2.19,PG,1683855624
178,malabar,-33.9667,151.25,21.53,62,20,3.09,AU,1683855624
179,dom pedrito,-30.9828,-54.6731,8.62,87,0,2.02,BR,1683855625
180,santa ana,33.7456,-117.8678,23.09,69,20,5.66,US,1683855612
181,salair,54.2312,85.7972,7.53,76,92,3.86,RU,1683855626
182,kolokani,13.5728,-8.0339,32.59,16,98,0.55,ML,1683855626
183,corfu,39.62,19.9197,16.01,100,40,0.0,GR,1683855512
184,vostochnyy,55.8167,37.8667,10.1,80,38,2.2,RU,1683855626
185,zhalantun,48.0,122.7167,21.36,32,100,7.82,CN,1683855627
186,lasem,-6.6922,111.4527,28.87,76,26,3.75,ID,1683855627
187,bredasdorp,-34.5322,20.0403,11.08,81,82,3.32,ZA,1683855627
188,touros,-5.1989,-35.4608,26.79,74,98,4.16,BR,1683855628
189,tariba,7.8188,-72.2243,24.31,85,59,1.52,VE,1683855628
190,yangliuqing,39.1375,116.9997,22.97,30,0,5.11,CN,1683855628
191,george town,5.4112,100.3354,30.96,79,20,2.06,MY,1683855416
192,champoton,19.35,-90.7167,30.21,61,0,3.25,MX,1683855629
193,tralee,52.2704,-9.7026,8.32,96,17,1.88,IE,1683855149
194,kirakira,-10.4544,161.9205,29.44,74,93,5.69,SB,1683855124
195,masterton,-40.9597,175.6575,12.16,59,28,3.66,NZ,1683855630
196,holbrook,40.8123,-73.0784,19.13,74,20,2.57,US,1683855590
197,newman,37.3138,-121.0208,26.19,47,0,2.24,US,1683855630
198,ilha de mocambique,-15.0342,40.7358,24.81,80,94,2.93,MZ,1683855631
199,zeya,53.75,127.2667,18.35,31,100,5.76,RU,1683855631
200,ath thawrah,35.8469,38.5443,24.88,31,100,3.94,SY,1683855631
201,ulladulla,-35.35,150.4667,19.87,44,17,2.3,AU,1683855094
202,kas,36.2018,29.6377,18.81,67,72,4.57,TR,1683855632
203,dzuunmod,48.2199,97.3744,9.35,50,97,3.09,MN,1683855632
204,moscow,55.7522,37.6156,10.25,73,27,2.13,RU,1683855104
205,revda,56.801,59.9303,4.99,57,84,3.22,RU,1683855632
206,nemuro,43.3236,145.575,6.1,72,1,2.36,JP,1683855113
207,tual,-5.6667,132.75,26.41,84,100,4.16,ID,1683855633
208,papao,-17.75,-149.55,27.82,91,100,11.11,PF,1683855633
209,wakkanai,45.4094,141.6739,10.99,62,75,5.66,JP,1683855633
210,portovelo,-3.7167,-79.6167,22.23,94,96,1.05,EC,1683855634
211,limassol,34.675,33.0333,23.04,53,0,3.6,CY,1683855634
212,elvas,38.8815,-7.1628,11.53,51,0,3.45,PT,1683855635
213,senanga,-16.1167,23.2667,14.09,52,1,1.63,ZM,1683855635
214,bonthe,7.5264,-12.505,26.82,84,87,2.02,SL,1683855143
215,kisangani,0.5167,25.2,21.17,99,97,0.43,CD,1683855635
216,winnemucca,40.973,-117.7357,19.03,24,20,2.57,US,1683855636
217,gangapur,26.4833,76.7167,32.62,11,0,2.34,IN,1683855636
218,weno,7.4515,151.8468,31.97,70,40,3.09,FM,1683855636
219,dayr mawas,27.6418,30.8466,23.88,29,0,3.43,EG,1683855636
220,chuguyevka,44.1653,133.8633,20.79,26,30,0.28,RU,1683855637
221,damboa,11.156,12.7576,31.08,38,53,2.65,NG,1683855637
222,veraval,20.9,70.3667,30.07,56,0,5.29,IN,1683855637
223,zarah sharan,33.1467,68.7917,16.33,40,3,0.73,AF,1683855637
224,naranjo,10.0987,-84.3782,22.71,92,12,0.89,CR,1683855638
225,anta,25.15,76.3,32.31,11,0,1.91,IN,1683855638
226,pangody,65.85,74.4859,-11.86,93,77,2.8,RU,1683855638
227,talara,-4.5772,-81.2719,25.42,83,0,3.6,PE,1683855639
228,troitsko-pechorsk,62.7084,56.1964,4.07,69,100,2.32,RU,1683855639
229,kapa'a,22.0752,-159.319,27.18,68,20,5.14,US,1683855639
230,afaahiti,-17.75,-149.2833,26.93,90,100,11.02,PF,1683855639
231,chibougamau,49.9168,-74.3659,13.79,58,100,2.57,CA,1683855608
232,leeton,-34.5667,146.4,19.94,33,7,1.63,AU,1683855639
233,recreo,-29.2818,-65.061,17.27,58,41,3.83,AR,1683855640
234,klyuchi,52.2667,79.1667,11.49,61,99,4.21,RU,1683855640
235,funafuti,-8.5243,179.1942,32.0,79,40,4.12,TV,1683855640
236,yeniseysk,58.4497,92.1703,5.82,70,100,3.97,RU,1683855640
237,viqueque,-8.8673,126.3658,27.74,57,98,2.8,TL,1683855641
238,longyearbyen,78.2186,15.6401,-4.09,74,75,4.63,SJ,1683855555
239,santa terezinha,-29.9002,-50.0904,16.36,78,98,3.48,BR,1683855641
240,colonia,50.9333,6.95,13.49,92,75,2.06,DE,1683855113
241,saint-philippe,-21.3585,55.7679,22.77,77,91,4.55,RE,1683855641
242,pacific grove,36.6177,-121.9166,17.72,78,40,4.92,US,1683855642
243,kentau,43.5206,68.5094,25.34,27,97,2.76,KZ,1683855642
244,hithadhoo,-0.6,73.0833,28.55,75,100,7.33,MV,1683855642
245,olonkinbyen,70.9221,-8.7187,0.18,88,72,6.56,SJ,1683855642
246,long beach,33.767,-118.1892,21.29,76,0,5.66,US,1683855642
247,qingyuan,23.7,113.0333,19.99,79,100,2.38,CN,1683855642
248,muroto-misakicho,33.2833,134.15,18.35,56,5,3.71,JP,1683855643
249,la ronge,55.1001,-105.2842,21.12,28,40,2.57,CA,1683855643
250,udachny,66.4167,112.4,4.14,55,100,6.79,RU,1683855643
251,kindu,-2.95,25.95,22.82,88,100,0.48,CD,1683855643
252,cedeira,43.6797,-8.0209,12.99,82,82,5.0,ES,1683855643
253,vernon,50.2581,-119.2691,24.2,35,21,1.79,CA,1683855388
254,piti village,13.4626,144.6933,31.84,75,40,4.63,GU,1683855643
255,grand falls-windsor,48.9332,-55.6649,3.61,68,30,0.82,CA,1683855299
256,benguela,-12.5763,13.4055,24.18,89,21,1.26,AO,1683855644
257,mar del plata,-38.0023,-57.5575,12.75,77,0,2.06,AR,1683855129
258,gizo,-8.103,156.8419,29.71,71,44,2.73,SB,1683855644
259,naze,28.3667,129.4833,22.51,62,22,4.53,JP,1683855644
260,coquimbo,-29.9533,-71.3436,12.85,100,0,1.03,CL,1683855644
261,nagqu,31.5,92.0,-2.41,48,100,3.25,CN,1683855645
262,sirjan,29.452,55.6814,20.07,23,11,2.03,IR,1683855645
263,hammerfest,70.6634,23.6821,5.25,100,100,9.77,NO,1683855645
264,stephenville,32.2207,-98.2023,28.44,74,0,4.12,US,1683855645
265,letlhakeng,-24.0944,25.0298,14.5,42,1,1.74,BW,1683855248
266,san-pedro,4.7485,-6.6363,27.13,86,100,3.03,CI,1683855645
267,alofi,-19.0595,-169.9187,27.94,74,75,6.17,NU,1683855106
268,tieli,46.95,128.05,22.11,22,100,6.32,CN,1683855646
269,tazacorte,28.629,-17.9293,19.54,83,100,6.17,ES,1683855646
270,puerto aysen,-45.4,-72.7,11.4,98,100,2.27,CL,1683855646
271,vidin,43.99,22.8725,10.38,66,100,4.31,BG,1683855646
272,xilin hot,43.9667,116.0333,15.06,40,63,4.28,CN,1683855647
273,el granada,37.5027,-122.4694,19.48,76,100,10.8,US,1683855647
274,carnarvon,-24.8667,113.6333,24.08,46,0,0.54,AU,1683855647
275,aswan,24.0934,32.907,29.61,13,0,2.06,EG,1683855647
276,brookings,44.3114,-96.7984,22.19,74,0,6.69,US,1683855440
277,kayangel,8.0823,134.7173,28.81,72,19,1.09,PW,1683855647
278,deschutes river woods,43.9915,-121.3584,19.11,42,0,2.57,US,1683855648
279,rabo de peixe,37.8,-25.5833,16.73,82,75,2.06,PT,1683855648
280,ancud,-41.8697,-73.8203,12.23,96,100,3.48,CL,1683855648
281,remire-montjoly,4.9167,-52.2667,23.02,100,20,1.03,GF,1683855648
282,namsos,64.4662,11.4957,8.03,87,100,1.03,NO,1683855649
283,prince george,53.9166,-122.753,21.27,47,0,4.63,CA,1683855649
284,antofagasta,-23.65,-70.4,15.6,80,15,1.44,CL,1683855649
285,merizo village,13.2658,144.6691,31.66,83,22,3.16,GU,1683855649
286,huanan,46.2167,130.5167,22.26,20,100,4.99,CN,1683855649
287,andol,17.8131,78.0772,30.4,46,9,4.6,IN,1683855650
288,tura,25.5198,90.2201,30.23,43,43,1.11,IN,1683855650
289,tamandare,-8.7597,-35.1047,25.06,79,38,1.93,BR,1683855650
290,cabo san lucas,22.8909,-109.9124,28.61,31,0,7.72,MX,1683855650
291,nova vicosa,-17.8919,-39.3719,24.11,82,95,3.4,BR,1683855161
292,la manga del mar menor,37.6413,-0.7165,20.0,75,20,3.09,ES,1683855651
293,dikwa,12.024,13.9165,30.05,19,63,1.77,NG,1683855651
294,nuuk,64.1835,-51.7216,1.34,86,100,10.29,GL,1683855651
295,ust'-kulom,61.6864,53.6902,5.75,68,100,2.48,RU,1683855651
296,jingmen,31.0336,112.2047,23.95,53,28,1.1,CN,1683855652
297,menongue,-14.6585,17.691,12.86,57,0,2.3,AO,1683855652
298,calcot,51.4406,-1.0509,10.29,79,20,2.57,GB,1683855652
299,den burg,53.0542,4.7972,11.67,94,75,5.66,NL,1683855652
300,el calafate,-50.3408,-72.2768,6.74,88,94,3.76,AR,1683855652
301,dinghaicun,26.2847,119.7936,19.51,84,100,2.23,CN,1683855652
302,port blair,11.6667,92.75,28.75,80,100,11.0,IN,1683855653
303,kailua-kona,19.6406,-155.9956,27.98,84,40,5.14,US,1683855477
304,itamaraju,-17.0392,-39.5311,20.34,95,90,0.44,BR,1683855653
305,nuku'alofa,-21.1333,-175.2,28.19,78,40,3.6,TO,1683855658
306,tarawa,1.419,172.984,31.05,74,20,4.63,KI,1683855658
307,port pirie,-33.1833,138.0167,19.18,49,13,2.13,AU,1683855658
308,gudari,19.35,83.7833,29.33,60,99,1.24,IN,1683855659
309,mejit,10.2753,170.8646,27.34,82,74,7.65,MH,1683855659
310,waingapu,-9.6567,120.2641,28.08,63,100,6.63,ID,1683855659
311,twon-brass,4.3151,6.2418,27.93,78,76,3.16,NG,1683855500
312,tabou,4.423,-7.3528,27.19,86,90,3.21,CI,1683855660
313,mugia,43.1041,-9.2179,12.17,81,88,6.42,ES,1683855660
314,becerril,9.7041,-73.2793,25.79,79,90,2.57,CO,1683855660
315,dakhla,23.6848,-15.958,18.3,92,41,7.09,EH,1683855660
316,tazovsky,67.4667,78.7,-15.74,96,68,3.55,RU,1683855660
317,garachico,28.7781,-17.7646,18.6,68,100,6.17,ES,1683855660
318,lezhe,41.7836,19.6436,15.0,85,59,1.89,AL,1683855661
319,lorengau,-2.0226,147.2712,28.77,78,99,2.27,PG,1683855661
320,sant cristofol de les fonts,42.1696,2.4994,10.54,88,100,0.75,ES,1683855661
321,sakakah,29.9697,40.2064,24.76,25,0,3.83,SA,1683855661
322,arauco,-37.2463,-73.3175,13.56,84,81,1.92,CL,1683855661
323,marsa alam,25.0757,34.8918,26.0,52,0,2.14,EG,1683855141
324,kristiansund,63.1115,7.732,9.36,93,100,1.54,NO,1683855662
325,esquel,-42.9,-71.3167,8.35,92,69,2.93,AR,1683855662
326,czluchow,53.6672,17.3588,6.96,85,3,3.73,PL,1683855662
327,tateyama,34.9833,139.8667,17.58,60,90,1.26,JP,1683855662
328,polyarnyy,69.1989,33.4478,3.18,100,100,2.85,RU,1683855663
329,port macquarie,-31.4333,152.9167,22.16,61,0,3.0,AU,1683855663
330,adre,13.4667,22.2,27.82,43,100,1.5,TD,1683855663
331,hancheng,32.5186,112.3522,24.1,47,100,2.99,CN,1683855664
332,linden,6.0,-58.3,23.4,99,98,0.8,GY,1683855664
333,tinogasta,-28.0632,-67.5649,16.9,60,16,1.61,AR,1683855664
334,yemva,62.59,50.8594,8.13,91,100,2.39,RU,1683855665
335,kodiak,57.79,-152.4072,6.73,87,100,7.2,US,1683855665
336,kruisfontein,-34.0033,24.7314,14.94,74,100,7.01,ZA,1683855665
337,el fasher,13.6279,25.3494,30.24,33,80,3.45,SD,1683855665
338,kencong,-8.2833,113.3667,28.01,78,37,1.19,ID,1683855666
339,el porvenir,13.7617,-87.3458,23.63,85,77,1.12,HN,1683855666
340,impfondo,1.6381,18.0667,22.27,94,64,0.78,CG,1683855666
341,rajpipla,21.8667,73.5,32.06,37,2,2.12,IN,1683855667
342,khash,28.2211,61.2158,24.79,16,26,1.46,IR,1683855667
343,smithers,54.7804,-127.1743,19.18,32,75,3.6,CA,1683855667
344,port moresby,-9.4431,147.1797,30.68,70,75,3.6,PG,1683855668
345,ponta delgada,37.7333,-25.6667,17.4,82,75,2.06,PT,1683855668
346,sironko,1.2313,34.2477,18.06,84,96,2.03,UG,1683855668
347,sur,22.5667,59.5289,30.87,47,0,3.96,OM,1683855668
348,hami,42.8,93.45,23.46,10,79,4.01,CN,1683855669
349,vadso,70.0744,29.7487,6.49,93,100,3.6,NO,1683855669
350,susaki,33.3667,133.2833,21.04,49,65,2.69,JP,1683855669
351,alesund,62.4723,6.1549,11.53,94,100,1.54,NO,1683855048
352,puerto baquerizo moreno,-0.9,-89.6,26.13,87,96,3.7,EC,1683855670
353,kalianget,-7.05,113.9333,28.74,80,26,6.11,ID,1683855671
354,enewetak,11.3474,162.3373,27.82,81,81,6.83,MH,1683855671
355,mahriz,31.5917,54.4318,20.28,20,20,1.73,IR,1683855671
356,puerto deseado,-47.7503,-65.8938,12.36,67,100,5.76,AR,1683855256
357,akjoujt,19.6969,-14.4164,30.03,25,13,5.12,MR,1683855672
358,huaihua,27.5494,109.9592,21.41,70,53,0.51,CN,1683855673
359,carupano,10.6678,-63.2585,24.81,87,100,3.86,VE,1683855674
360,porto novo,6.4965,2.6036,28.9,84,94,2.3,BJ,1683855674
361,kuusamo,65.9667,29.1833,3.02,75,0,1.03,FI,1683855674
362,al jawf,29.5,38.75,23.54,18,0,2.07,SA,1683855675
363,rawson,-43.3002,-65.1023,16.56,49,100,2.86,AR,1683855650
364,kirensk,57.7853,108.1119,7.99,43,100,4.02,RU,1683855675
365,mirpur bhtoro,24.7286,68.2603,28.69,62,2,6.77,PK,1683855675
366,tarija,-21.5355,-64.7296,11.95,82,100,2.06,BO,1683855676
367,betio village,1.358,172.9211,31.02,78,100,5.44,KI,1683855676
368,beledweyne,4.7358,45.2036,25.87,73,100,5.68,SO,1683855676
369,zouerate,22.7187,-12.4521,30.3,21,78,6.71,MR,1683855676
370,machico,32.7,-16.7667,20.07,70,20,7.2,PT,1683855677
371,abu dhabi,24.4667,54.3667,29.97,57,0,0.0,AE,1683855676
372,kashgar,39.4547,75.9797,18.56,20,0,4.0,CN,1683855354
373,kasama,-10.2129,31.1808,13.35,97,93,1.33,ZM,1683855678
374,obock,12.25,43.0833,23.47,85,40,3.39,DJ,1683855678
375,luderitz,-26.6481,15.1594,15.19,78,100,11.2,NA,1683855679
376,la passe,45.5549,-0.8967,11.1,85,85,1.42,FR,1683855679
377,berdigestyakh,62.0989,126.6992,3.18,42,100,3.31,RU,1683855679
378,bubaque,11.2833,-15.8333,26.11,76,100,6.56,GW,1683855679
379,la'ie,21.6477,-157.9253,27.98,69,44,1.34,US,1683855679
380,paita,-5.0892,-81.1144,24.86,78,47,7.08,PE,1683855680
381,dawei,14.0833,98.2,27.55,84,100,1.94,MM,1683855680
382,shakiso,5.75,38.9167,15.34,96,85,0.36,ET,1683855680
383,colonia menno,-22.3667,-59.8167,16.33,61,69,3.44,PY,1683855681
384,surab,28.4914,66.2585,22.33,19,0,1.71,PK,1683855681
385,romford,51.5752,0.1858,11.64,91,58,1.34,GB,1683855681
386,kavieng,-2.5744,150.7967,28.33,74,98,1.16,PG,1683855681
387,vila velha,-20.3297,-40.2925,23.97,88,75,0.0,BR,1683855682
388,cidreira,-30.1811,-50.2056,16.96,73,100,4.72,BR,1683855682
389,sept-iles,50.2001,-66.3821,9.0,61,40,1.54,CA,1683855480
390,ust-tsilma,65.441,52.1498,2.0,100,100,1.02,RU,1683855682
391,mount pearl,47.5166,-52.7813,4.19,60,20,8.75,CA,1683855353
392,arkalyk,50.2486,66.9114,13.45,56,94,8.35,KZ,1683855119
393,marka,1.7159,44.7717,26.4,85,91,5.83,SO,1683855683
394,gornozavodsk,58.3758,58.3211,5.0,67,25,1.32,RU,1683855683
395,ciudad lazaro cardenas,17.9583,-102.2,27.64,73,100,4.09,MX,1683855301
396,nadym,65.5333,72.5167,-8.61,83,34,2.81,RU,1683855684
397,opatija,45.3392,14.3083,13.43,90,99,1.38,HR,1683855684
398,suva,-18.1416,178.4415,29.71,66,75,3.6,FJ,1683855684
399,cromwell,41.5951,-72.6454,19.6,59,0,1.54,US,1683855685
400,akureyri,65.6835,-18.0878,9.96,66,0,5.14,IS,1683855685
401,ippy,6.2679,21.2247,21.89,91,79,0.88,CF,1683855685
402,camiri,-20.05,-63.5167,17.78,87,100,1.12,BO,1683855686
403,ar ruways,24.1103,52.7306,27.49,52,2,2.0,AE,1683855686
404,tanda,26.55,82.65,31.25,12,0,2.66,IN,1683855687
405,greymouth,-42.4667,171.2,13.3,42,7,0.57,NZ,1683855687
406,tres arroyos,-38.3739,-60.2798,9.17,53,69,4.55,AR,1683855688
407,kununurra,-15.7667,128.7333,25.99,22,32,7.2,AU,1683855688
408,tilcara,-23.5776,-65.3509,5.46,77,63,0.55,AR,1683855688
409,paradip garh,20.3167,86.6167,29.23,76,100,2.34,IN,1683855688
410,puerto barrios,15.7167,-88.6,29.08,70,40,0.0,GT,1683855689
411,yeppoon,-23.1333,150.7333,24.88,62,15,8.25,AU,1683855689
412,sisimiut,66.9395,-53.6735,-2.68,85,100,5.96,GL,1683855689
413,saldanha,-33.0117,17.9442,10.03,69,52,12.55,ZA,1683855690
414,carutapera,-1.195,-46.02,24.4,93,21,1.6,BR,1683855690
415,kapuskasing,49.4169,-82.4331,17.05,72,40,3.09,CA,1683855690
416,neubrandenburg,53.5667,13.2667,10.88,65,99,3.61,DE,1683855691
417,dokkum,53.3222,5.997,11.67,93,100,4.63,NL,1683855691
418,fruita,39.1589,-108.729,21.64,28,0,0.0,US,1683855691
419,wucheng,29.6008,118.175,18.47,87,98,1.33,CN,1683855692
420,bam,29.106,58.357,26.75,19,52,2.29,IR,1683855692
421,mezhdurechenskiy,59.6,65.9333,4.65,48,22,1.72,RU,1683855692
422,tinajo,29.0788,-13.7081,17.49,82,0,7.2,ES,1683855692
423,shiqi,22.5168,113.3852,22.95,99,100,2.6,CN,1683855692
424,nizhniy kuranakh,58.8353,125.4869,-0.08,96,100,3.22,RU,1683855693
425,tsiombe,-25.3,45.4833,21.16,79,30,0.62,MG,1683855693
426,codrington,-38.2667,141.9667,14.57,63,90,3.49,AU,1683855693
427,dzhalagash,45.0833,64.6667,24.31,32,92,3.8,KZ,1683855693
428,eaton,42.6,-84.85,23.14,55,0,0.0,US,1683855611
429,lazaro cardenas,17.9583,-102.2,27.64,73,100,4.09,MX,1683855694
430,northam,51.0333,-4.2167,9.1,97,8,2.24,GB,1683855694
431,saint-joseph,-21.3667,55.6167,22.21,75,95,4.41,RE,1683855700
432,progreso,21.2833,-89.6667,33.06,60,84,5.22,MX,1683855701
433,novyye lapsary,56.0685,47.2142,6.84,76,0,3.0,RU,1683855701
434,waterloo,43.4668,-80.5164,18.74,45,0,1.54,CA,1683855601
435,longonjo,-12.9067,15.2533,13.25,58,0,0.61,AO,1683855701
436,ivins,37.1686,-113.6794,26.62,21,75,1.79,US,1683855701
437,sungjibaegam,41.2428,128.7989,14.31,26,100,1.17,KP,1683855702
438,konstantinovka,49.6167,127.9833,23.58,26,95,7.3,RU,1683855702
439,madugula,17.9167,82.8,28.58,64,100,0.82,IN,1683855702
440,acapulco de juarez,16.8634,-99.8901,28.9,70,75,2.06,MX,1683855471
441,kuanda,56.3161,116.0806,4.45,52,63,2.35,RU,1683855702
442,goure,13.9835,10.2704,27.38,16,99,3.35,NE,1683855702
443,horsham,51.064,-0.3272,10.8,92,0,0.51,GB,1683855702
444,saudarkrokur,65.7461,-19.6394,9.31,80,100,7.02,IS,1683855703
445,itacarambi,-15.1022,-44.0919,23.86,47,82,1.87,BR,1683855703
446,kidatu,-7.6992,36.9572,20.29,94,14,0.68,TZ,1683855703
447,rampur hat,24.1667,87.7833,32.03,48,100,3.73,IN,1683855703
448,lerwick,60.1545,-1.1494,8.0,90,0,3.61,GB,1683855703
449,bardai,11.65,7.2333,26.26,57,16,2.53,NG,1683855704
450,inarajan village,13.2736,144.7484,31.33,83,28,3.22,GU,1683855704
451,salisbury,51.0693,-1.7957,10.57,90,13,3.6,GB,1683855704
452,cockburn town,21.4612,-71.1419,26.8,79,6,6.13,TC,1683855704
453,alvorada,-12.48,-49.1247,23.56,68,10,1.56,BR,1683855704
454,qamdo,31.1667,97.2333,-0.22,47,100,1.93,CN,1683855273
455,bikenibeu village,1.3673,173.1241,30.98,74,20,4.63,KI,1683855704
456,phan rang-thap cham,11.5667,108.9833,29.89,70,100,0.88,VN,1683855705
457,caleta de carquin,-11.0925,-77.6267,21.45,85,100,4.5,PE,1683855705
458,tutoia,-2.7619,-42.2744,25.8,87,51,3.32,BR,1683855705
459,homer,59.6425,-151.5483,9.93,62,100,2.57,US,1683855705
460,mount gambier,-37.8333,140.7667,15.44,55,5,2.16,AU,1683855705
461,bor,56.3567,44.0669,2.96,84,10,2.14,RU,1683855705
462,orbe,46.725,6.5307,11.15,88,65,1.71,CH,1683855706
463,alo,7.4178,6.7371,25.32,92,98,1.59,NG,1683855706
464,maintirano,-18.0667,44.0167,23.73,85,99,3.24,MG,1683855706
465,vigan,17.5747,120.3869,30.52,92,94,2.58,PH,1683855706
466,turabah,21.2141,41.6331,26.38,19,22,3.3,SA,1683855706
467,shache,38.4167,77.2406,20.51,10,87,0.84,CN,1683855706
468,island harbour,50.724,-1.2758,11.63,94,13,0.89,GB,1683855707
469,ola,59.5833,151.2833,6.75,75,48,2.08,RU,1683855707
470,samarinda,-0.5,117.15,32.02,60,72,0.23,ID,1683855707
471,san fernando de apure,7.8878,-67.4724,26.41,66,98,1.15,VE,1683855707
472,alpine,32.835,-116.7664,18.53,68,0,4.63,US,1683855707
473,badiyah,22.45,58.8,28.94,46,0,2.06,OM,1683855707
474,cozumel,20.5083,-86.9458,28.86,86,75,4.63,MX,1683855481
475,namibe,-15.1961,12.1522,22.24,77,31,2.02,AO,1683855708
476,bac lieu,9.285,105.7244,30.48,67,100,2.71,VN,1683855708
477,miles city,46.4083,-105.8406,12.54,94,100,7.72,US,1683855708
478,kerikeri,-35.2268,173.9474,18.84,66,20,0.45,NZ,1683855523
479,san patricio,28.017,-97.5169,27.13,90,0,5.85,US,1683855708
480,richards bay,-28.783,32.0377,18.77,88,12,2.91,ZA,1683855614
481,neuenkirch,47.0999,8.2042,9.81,95,100,0.0,CH,1683855708
482,nidau,47.1255,7.2403,11.34,94,75,0.51,CH,1683855708
483,micheweni,-4.9667,39.8333,25.25,87,40,3.97,TZ,1683855709
484,kongsvinger,60.1905,11.9977,8.36,50,29,1.68,NO,1683855709
485,francisco sa,-16.4758,-43.4883,22.08,41,100,1.57,BR,1683855709
486,jiuquan,39.7432,98.5174,21.39,10,0,5.8,CN,1683855709
487,huarmey,-10.0681,-78.1522,22.5,85,100,3.83,PE,1683855709
488,promyshlennaya,54.9159,85.6385,7.53,66,28,4.68,RU,1683855709
489,margate,51.3813,1.3862,11.84,91,100,3.58,GB,1683855710
490,hashtpar,37.8008,48.9037,16.69,94,100,1.79,IR,1683855710
491,olyokminsk,60.3736,120.4264,6.66,40,98,0.73,RU,1683855710
492,mabaruma,8.2,-59.7833,23.45,92,64,1.19,GY,1683855710
493,magadan,59.5667,150.8,4.74,78,50,1.96,RU,1683855378
494,tataouine,32.9297,10.4518,21.24,49,66,2.56,TN,1683855710
495,suntar,62.1444,117.6319,6.14,41,0,2.69,RU,1683855710
496,robinson,31.4677,-97.1147,27.92,82,0,6.69,US,1683855711
497,murun-kuren,49.6342,100.1625,12.44,34,96,3.01,MN,1683855711
498,paka,4.6374,103.4368,29.96,84,40,1.03,MY,1683855711
499,manuguru,17.981,80.7547,29.69,55,99,1.3,IN,1683855711
500,shaping,22.7545,112.9565,22.19,90,100,2.17,CN,1683855711
501,samraong,12.4526,105.5873,29.13,74,99,2.07,KH,1683855712
502,edd,13.9297,41.6925,29.22,76,1,1.1,ER,1683855712
503,riachao,-7.3619,-46.6172,24.16,77,99,0.61,BR,1683855712
504,arias,-33.6441,-62.4027,12.8,65,94,3.61,AR,1683855712
505,flying fish cove,-10.4217,105.6791,27.82,89,100,6.17,CX,1683855712
506,puerto quijarro,-17.7833,-57.7667,25.28,68,100,1.42,BO,1683855712
507,keflavik,64.0049,-22.5624,8.95,100,100,9.77,IS,1683855713
508,sandnessjoen,66.0217,12.6316,7.29,95,99,1.34,NO,1683855713
509,goundi,9.3627,17.366,28.18,55,81,2.99,TD,1683855713
510,taroa,8.7058,171.2275,27.74,82,91,8.53,MH,1683855713
511,tsuyama,35.05,134.0,21.57,36,99,1.25,JP,1683855713
512,yairipok,24.6667,94.0667,25.92,27,100,0.94,IN,1683855713
513,hobyo,5.3505,48.5268,26.96,83,100,8.66,SO,1683855328
514,palmas de monte alto,-14.2672,-43.1619,24.23,46,24,1.26,BR,1683855713
515,kattivakkam,13.2167,80.3167,29.48,87,100,1.99,IN,1683855714
516,balkashino,52.5167,68.7667,11.02,41,25,4.52,KZ,1683855714
517,nyrob,60.733,56.7202,4.09,58,55,1.32,RU,1683855714
518,mizdah,31.4451,12.9801,17.73,60,4,4.37,LY,1683855714
519,shatrovo,56.5167,64.6333,4.79,49,3,3.2,RU,1683855714
520,otjimbingwe,-22.35,16.1333,20.94,30,100,1.66,NA,1683855715
521,begamganj,23.6,78.3333,31.76,12,0,3.32,IN,1683855715
522,nadi,-17.8,177.4167,31.0,51,20,5.14,FJ,1683855715
523,el alto,-4.2714,-81.2147,23.81,79,69,5.71,PE,1683855715
524,crucecita,-28.95,-58.9833,11.11,83,1,2.51,AR,1683855715
525,plastun,44.7561,136.2939,11.68,62,2,3.09,RU,1683855715
526,nueva helvecia,-34.3,-57.2333,10.89,89,14,2.2,UY,1683855715
527,manggar,-2.8833,108.2667,30.07,73,100,3.97,ID,1683855649
528,amos,48.5669,-78.1162,12.51,94,100,2.5,CA,1683855686
529,sayansk,54.1088,102.1648,10.79,38,89,5.09,RU,1683855716
530,ishpeming,46.4885,-87.6676,20.52,71,100,1.24,US,1683855716
531,urzhar,47.093,81.6294,22.51,32,100,0.13,KZ,1683855716
532,castillos,-34.1667,-53.8333,12.44,65,34,1.47,UY,1683855716
533,ajaokuta,7.5623,6.655,25.67,90,100,1.9,NG,1683855716
534,haymana,39.4321,32.4973,8.5,92,100,2.5,TR,1683855717
535,rabaul,-4.1967,152.1721,27.78,82,97,4.56,PG,1683855717
536,tchibanga,-2.85,11.0333,22.41,96,100,0.27,GA,1683855717
537,floro,61.5996,5.0328,8.87,100,100,2.06,NO,1683855717
538,dampit,-8.2116,112.7493,26.78,76,40,2.35,ID,1683855717
539,pandan,14.0453,124.1694,28.77,68,32,4.17,PH,1683855217
540,palikir - national government center,6.9248,158.1611,32.41,66,75,4.12,FM,1683855172
541,ashoknagar,24.5667,77.7167,30.87,11,0,2.79,IN,1683855718
542,mil'kovo,55.6078,37.7956,10.23,80,42,2.45,RU,1683855718
543,asubulaq,49.5583,83.0558,18.25,48,100,1.28,KZ,1683855720
544,viransehir,37.2353,39.7631,20.59,34,100,3.77,TR,1683855720
545,kavaratti,10.5669,72.642,29.22,66,100,1.54,IN,1683855720
546,puerto colombia,10.9878,-74.9547,28.05,87,12,8.13,CO,1683855720
547,makubetsu,45.3714,141.8211,10.84,62,75,5.66,JP,1683855721
548,manoc-manoc,11.9416,121.9428,28.85,76,100,5.42,PH,1683855722
549,jajpur,20.85,86.3333,30.27,63,84,1.6,IN,1683855722
550,paracuru,-3.41,-39.0306,25.23,83,78,2.0,BR,1683855723
551,lander,42.833,-108.7307,12.22,71,100,3.6,US,1683855723
552,laibin,23.7,109.2667,20.34,74,99,4.22,CN,1683855723
553,prince rupert,54.3161,-130.3201,14.05,55,20,9.26,CA,1683855612
554,magdagachi,53.45,125.8,19.68,30,100,5.42,RU,1683855723
555,mahina,-17.5065,-149.489,27.87,69,100,2.57,PF,1683855724
556,barranca,-10.75,-77.7667,21.35,85,97,4.03,PE,1683855426
557,westport,41.1415,-73.3579,21.08,63,40,2.57,US,1683855724
558,bad salzungen,50.8167,10.2333,10.95,97,100,1.63,DE,1683855724
